{"0": {"id": 20, "name": "John Brooks", "address": "465 Christopher Plaza Suite 951\nBridgetville, TX 58676", "latitude": "54.6117425", "longitude": "-32.225575"}, "1": {"id": 4, "name": "Deanna Williamson", "address": "USCGC Simpson\nFPO AE 26777", "latitude": "-37.5661805", "longitude": "54.684954"}, "2": {"id": 33, "name": "Joel Francis", "address": "02902 Mark Spur\nNorth Carol, WY 95624", "latitude": "-72.432770", "longitude": "80.119126"}, "3": {"id": 50, "name": "Michelle Benitez", "address": "211 Hebert Crossroad\nSeanside, DC 21464", "latitude": "27.9179305", "longitude": "-88.777057"}, "4": {"id": 57, "name": "Robert Morris", "address": "837 Yolanda Plain Apt. 528\nNew Melaniebury, ID 98235", "latitude": "61.5498485", "longitude": "-80.058858"}, "5": {"id": 53, "name": "Lisa Gates", "address": "420 Nelson Manor Suite 440\nEast Kellychester, AR 78360", "latitude": "-76.448649", "longitude": "143.169512"}, "6": {"id": 36, "name": "Joann Henderson", "address": "Unit 4674 Box 0963\nDPO AP 23743", "latitude": "53.736833", "longitude": "83.907839"}, "7": {"id": 18, "name": "Benjamin Fernandez", "address": "7180 Browning Way\nNorth Rebecca, KS 79957", "latitude": "79.3093235", "longitude": "-30.180428"}, "8": {"id": 69, "name": "Christian Hayden", "address": "8817 Flores Points\nNorth Katie, NY 91725", "latitude": "63.3276105", "longitude": "76.376947"}, "9": {"id": 17, "name": "Frederick Cherry", "address": "853 Swanson Mills Apt. 785\nPort Daniel, CA 29622", "latitude": "21.827833", "longitude": "-150.889869"}}